%time,field.pose.position.x,field.pose.position.y,field.pose.position.z,field.pose.orientation.x,field.pose.orientation.y,field.pose.orientation.z,field.pose.orientation.w
1704804082698698361,0.0,0.0,0.0,0.0,0.0,0.0,1.0
1704804082893023883,1.86229692158,-0.0724203566139,0.00455170921859,-0.000249482585043,0.000514676841216,0.000107997202408,0.999999830601
1704804082938746623,3.75980331172,-0.110873480673,0.0305558941238,-0.000122881983594,0.00158968312026,-0.000204449676169,0.999998708003
1704804083019521365,5.63244405508,-0.170406698966,0.00563524399772,2.16050545963e-06,0.000494262416985,-0.000340435298811,0.999999819902
1704804083113097416,7.50846879093,-0.250270071815,0.072484590452,-0.000228565245471,0.000734764127136,-9.52706004221e-05,0.999999699402
1704804083213346624,9.40011452377,-0.316053441789,0.0759480911654,-0.000371743559235,-0.000599573231691,-0.000154619921471,0.999999739206
1704804083302875036,11.279664068,-0.382814952851,0.0640751054206,-0.000668604586487,-0.00183147674839,-0.000134101888865,0.999998090337
1704804083404286355,13.1656958158,-0.458012974731,0.0878060615677,-0.000456479768222,-0.00205440299435,0.000140495279118,0.999997775655
1704804083497984573,15.0199803686,-0.507215828388,0.0542771492212,-0.000827747333463,-0.00289550453706,-0.000125295127064,0.999995457584
1704804083597559872,16.9053963486,-0.569530124052,0.0364495500765,-0.000850426131454,-0.00298848624922,-8.58523123252e-05,0.999995169166
1704804083698740861,18.7778565424,-0.638321455544,0.0258811077436,-0.00146096396798,-0.00285973011492,8.51801537969e-05,0.999994840123
1704804083796462720,20.6356975727,-0.693616733209,0.0244441961549,-0.000870818679326,-0.00262822803294,4.50583807355e-06,0.999996167029
1704804083903393761,22.5053774386,-0.750200436316,0.0676305440941,-0.000848538967382,-0.00222716281358,-5.2611635831e-05,0.999997158476
1704804083998142279,24.3905556277,-0.822166861456,0.0452622296311,-0.000822365022029,-0.00336106517398,0.000147529692217,0.999994002578
1704804084097727908,26.2674555337,-0.872881838413,0.0431905562336,-0.000588891062272,-0.00386408564825,1.80852874828e-05,0.999992360832
1704804084198040183,28.1595045451,-0.923287268649,0.0930886030715,-0.000664033627768,-0.00439478193161,-6.31864189936e-05,0.99999012043
1704804084300171002,30.0231584816,-1.01235007867,0.134002530477,-0.000601530045459,-0.00472683911492,0.000398978515326,0.99998856792
1704804084403705410,31.8993832861,-1.0548256587,0.134619556755,-0.000478643265841,-0.00508877062148,0.000412540761209,0.999986852476
1704804084497638332,33.7808650883,-1.10608511582,0.154769967781,-0.000746529172887,-0.00500931252533,0.000418305753053,0.999987087168
1704804084599875043,35.6523781436,-1.15139914827,0.143890162684,-0.000488635124875,-0.00503481857029,0.00053232905868,0.999987064148
1704804084708891758,37.5369657198,-1.20742075836,0.182931675462,-0.000782777040816,-0.00384119478792,0.00073136950178,0.999992048759
1704804084827916582,39.4028645398,-1.25872342105,0.1865927918,-0.000546834970297,-0.00459250400699,0.000753794063942,0.999989020776
1704804084903820633,41.2859852743,-1.33403482983,0.198009778889,-0.000535265597353,-0.00473534133083,0.00121301883522,0.999987909236
1704804085002620955,43.1428896692,-1.39754738207,0.232619625665,-0.000447354107197,-0.00461220877692,0.00134670046525,0.999988356833
1704804085104165429,44.9777457297,-1.44434794531,0.256819400125,-0.00057787655874,-0.00464381626627,0.00136652160047,0.999988116753
1704804085203532431,46.8594864658,-1.50628671374,0.215059955476,-0.000173041629051,-0.00553328639494,0.00175722140555,0.999983132343
1704804085304346991,48.7147195151,-1.56527030904,0.253918139419,-0.000784694978911,-0.00454804290733,0.00191777566611,0.99998751077
1704804085410438387,50.5927205449,-1.6081517029,0.277659489861,-0.00139821683079,-0.00429336018018,0.00202058183055,0.999987764574
1704804085504838173,52.4665887201,-1.66113348227,0.305402261757,-0.000988404901759,-0.00492167455293,0.00211216200243,0.999985169364
1704804085605789088,54.3498379271,-1.70932735366,0.263703420608,-0.000941728195413,-0.00741890221894,0.00225287674189,0.999969498327
1704804085715718157,56.2230633004,-1.7438187297,0.387050938449,-0.000982826167667,-0.0075522001173,0.00180332893543,0.999969372696
1704804085814890613,58.0923988876,-1.80593074789,0.406256287023,-0.00221397456362,-0.00891349496637,0.00188094305849,0.999956054023
1704804085908933535,59.9563182471,-1.87201908232,0.404596745001,-0.00350123773128,-0.00992898162141,0.00174834792048,0.999943048347
1704804086008796343,61.8128141018,-1.94157163977,0.495184190322,-0.00357893229088,-0.0082986650224,0.00137691382799,0.999958212882
1704804086103033230,63.6428102621,-1.98624670325,0.521621211777,-0.00410582942871,-0.00775971118367,0.000963621529993,0.99996099948
1704804086208880524,65.5210493337,-2.03956877294,0.570914747711,-0.00544603159898,-0.0070673154544,0.000550796328825,0.99996004441
1704804086315666217,67.3707317047,-2.10448577604,0.579202240127,-0.00652093441451,-0.00766422060841,0.000174467158658,0.999949352066
1704804086398162406,69.2155111335,-2.161653207,0.615034871787,-0.00708519322429,-0.00783054921476,-0.000688531588464,0.999944002662
1704804086496083309,71.0925191857,-2.22404682355,0.670398779444,-0.00724833420418,-0.00831870762597,-0.00138295475513,0.999938172184
1704804086592779659,72.9679554551,-2.26591056427,0.740879922971,-0.00685345198738,-0.00842836001281,-0.00201891403261,0.999938956602
1704804086703766476,74.8347890526,-2.32978565764,0.787248745547,-0.00721811523689,-0.00867532002084,-0.00252700765362,0.999933123697
1704804086785669086,76.690624581,-2.4141273007,0.806354979575,-0.00667326710564,-0.00897092107489,-0.00270691814954,0.999933829148
1704804086899199672,78.5437830632,-2.44160990811,0.862310782627,-0.00692689334837,-0.0091464383756,-0.00365293090571,0.999927505827
1704804086993320868,80.4224426487,-2.54114026742,0.885738019536,-0.00606841296165,-0.00916279355384,-0.003695515117,0.999932778114
1704804087107004697,82.2597663216,-2.63846646002,0.744024593685,-0.00503111180333,-0.010906927875,-0.00384540971008,0.999920466668
1704804087196712080,84.089684269,-2.70794670737,0.858469268842,-0.00227275294708,-0.010047642921,-0.00399867779929,0.999938943157
1704804087304255760,85.9447118988,-2.79938176839,0.884130351562,-0.00243206675213,-0.0100461012897,-0.00444766121988,0.999936687601
1704804087398757105,87.8105593245,-2.87961067133,0.890589758794,-0.00276506758215,-0.0104741655598,-0.00466914344881,0.999930420258
1704804087514526870,89.675917315,-2.94312491948,0.921225399015,-0.00291661477441,-0.0111049511242,-0.00514698142171,0.999920837867
1704804087607248627,91.5505760093,-3.01802915475,0.975839158166,-0.00240100710593,-0.0120870046585,-0.00528619472964,0.999910093773
1704804087704732948,93.4130070433,-3.08801155605,1.02702243213,-0.00189158126679,-0.012077433715,-0.00578154996218,0.999908561417
1704804087806246881,95.2722874093,-3.16338023643,1.05636607443,-0.00262703204532,-0.0130873514228,-0.00604605601575,0.999892626807
1704804087912556323,97.1226143974,-3.26307794667,1.12849009753,-0.00292973935919,-0.0127406056186,-0.00597109840737,0.999896714456
1704804088023501428,98.9851055504,-3.33764985444,1.18315539167,-0.00345316079145,-0.01228872026,-0.00618765958094,0.99989938289
1704804088109259874,100.85460107,-3.40050631378,1.22303748816,-0.00476313637002,-0.0121923087521,-0.00662504817302,0.999892378647
1704804088206466823,102.712804893,-3.4856429719,1.31012890713,-0.00566253012123,-0.0114747991122,-0.00675925964724,0.999895283091
1704804088300087740,104.587502564,-3.55911498259,1.35754757783,-0.00570546334609,-0.0117468410903,-0.00662668930559,0.999892767451
1704804088398872325,106.434373188,-3.65490194317,1.39802415866,-0.0065729736384,-0.0122651906017,-0.00656186552632,0.999881644515
1704804088509060130,108.280648765,-3.72652111467,1.42627173028,-0.00653463601285,-0.0129629995308,-0.00634553644742,0.999874488795
1704804088614642599,110.131256474,-3.78375433066,1.47440939168,-0.00653639826521,-0.013045917942,-0.00629422644444,0.999873723145
1704804088709589869,111.985342301,-3.85674763064,1.51234640543,-0.00637514609567,-0.0126026777474,-0.00602822032966,0.999882088341
1704804088803869103,113.838540386,-3.92670579726,1.59571654514,-0.00567227651881,-0.0109298195109,-0.00571784283526,0.999907831051
1704804088899922160,115.686436057,-4.01026421183,1.6570814874,-0.00546769392874,-0.00982982449828,-0.00528914142067,0.999922748944
1704804089008125254,117.542345092,-4.08161508886,1.71682868847,-0.00451465729079,-0.00930082081836,-0.00449964184786,0.999936430892
1704804089109584648,119.407424818,-4.15514547326,1.75663485759,-0.00432524391097,-0.00974878655233,-0.00416754817261,0.999934440335
1704804089208031138,121.266571664,-4.21548490488,1.78444662298,-0.00390216303853,-0.0104200646987,-0.00377373525927,0.999930974767
1704804089305726406,123.130421338,-4.27826974516,1.81860687288,-0.00354088828222,-0.0118004164868,-0.00347239979565,0.999918074004
1704804089403827126,124.993985295,-4.36228449645,1.85959548724,-0.00405878772823,-0.0123037782072,-0.00270915132794,0.999912398054
1704804089511907273,126.8487934,-4.44385212144,1.88781390408,-0.00404110503052,-0.0126205444068,-0.00230163692063,0.999909542807
1704804089784684291,128.71713287,-4.50279695102,1.87978556113,-0.00505954278618,-0.0132501882694,-0.00209310632281,0.99989722094
1704804089820014498,130.577438803,-4.59575214623,1.90649208123,-0.00553848645449,-0.0136944140546,-0.00161917668571,0.999889577133
1704804089855412435,132.435479712,-4.68426285878,1.94597945878,-0.0062276156094,-0.0142389270513,-0.00126224878552,0.999878430855
1704804089876997498,134.284128654,-4.75470360859,2.00875654912,-0.00790336801857,-0.0143911979026,-0.00136853585268,0.999864269442
1704804089876997498,136.144142581,-4.82957406774,2.11912636345,-0.00799747442245,-0.0140929567653,-0.00103340064248,0.999868171838
1704804091249959105,137.983532756,-4.88202439845,2.16323490604,-0.00892049971967,-0.0148227924049,-0.00104705479877,0.999849795312
1704804091290198919,139.842958455,-4.93268360554,2.25477754694,-0.00848042619268,-0.0152572736331,-0.00108228859999,0.999847051616
1704804091341246199,141.701017218,-4.99964686508,2.35633945451,-0.00846745354053,-0.0145853849617,-0.00117462915062,0.999857084299
1704804091373856551,143.554403072,-5.05387241998,2.39370586408,-0.00854709069449,-0.0143996407288,-0.00131864458565,0.99985891943
1704804091416907676,145.426047498,-5.14191661149,2.43218433554,-0.00768442235437,-0.0143936533907,-0.00108423525098,0.999866289475
1704804091452533380,147.26201901,-5.23824050289,2.50098441939,-0.00685871378263,-0.0139386328968,-0.000982243985555,0.999878846538
1704804091493164670,149.160918661,-5.31351632029,2.50749121105,-0.00562056809151,-0.014508909061,-0.000765457102846,0.999878650061
1704804091518487932,151.030685065,-5.37432097955,2.56663977854,-0.00497482576612,-0.0148423956217,-0.000950392907005,0.999877018015
1704804091553979541,152.883876225,-5.44778376365,2.59586054757,-0.00522666574551,-0.0155778898845,-0.00088132763864,0.999864608121
1704804091601120859,154.759822086,-5.50942048254,2.63853667578,-0.00497207723078,-0.0160032189422,-0.00100409949237,0.999859073678
1704804091631444966,156.623075064,-5.55974250078,2.67527290404,-0.00564931135387,-0.0160516693386,-0.00114790652004,0.999854545173
1704804091668138899,158.456997956,-5.61833612813,2.77690442417,-0.00599035781232,-0.0144674338793,-0.00141322354838,0.999876398246
1704804091704194092,160.326525772,-5.6821655674,2.81021876862,-0.00668390250993,-0.0141169568075,-0.00164407554488,0.99987665939
1704804091739797605,162.174557525,-5.75458998888,2.90654566991,-0.00638518794733,-0.013753440589,-0.00179620104056,0.999883416158
1704804091772613761,164.03682447,-5.76362994305,2.95976544227,-0.00650213481778,-0.0147570743407,-0.00241958608016,0.999867039462
1704804091809416819,165.883035036,-5.81555518267,3.10113378963,-0.00836854651583,-0.0146714216644,-0.00289423509229,0.999853159328
1704804091839913190,167.748459843,-5.89099452194,3.18889617876,-0.00903878462741,-0.015462968211,-0.00347873783593,0.999833533829
1704804091875114479,169.600026252,-5.96728160341,3.27135467563,-0.00940287537967,-0.0159740591027,-0.00346921387992,0.999822174152
1704804091907732883,171.448129185,-6.00568685972,3.39347337147,-0.0101172890904,-0.0142901939184,-0.00426387815265,0.999837611896
1704804091990324011,173.282001472,-6.05509916989,3.40969121111,-0.0100820511774,-0.0139134241818,-0.00482719925474,0.999840720825
1704804092093873386,175.148235737,-6.10105629824,3.45897696563,-0.0095101808964,-0.0135331420901,-0.00548277056348,0.999848163349
1704804092208216595,176.978333558,-6.16774335421,3.53701669649,-0.00896122669658,-0.0132017536436,-0.00568850250633,0.999856515234
1704804092300590982,178.807089131,-6.28002974182,3.6122554142,-0.00912282562013,-0.0137655565848,-0.00574991706671,0.99984709929
1704804092386948646,180.697201217,-6.38090847965,3.69410969349,-0.00771603614739,-0.0144184339841,-0.00574279562692,0.999849784641
1704804092499714196,182.561916346,-6.43897511918,3.70117258623,-0.00710692038352,-0.0166648812587,-0.00632555710242,0.999815863418
1704804092593279540,184.448879598,-6.52241035075,3.80304417413,-0.00662471017093,-0.0167160319637,-0.00630094367896,0.999818476324
1704804092692368204,186.310499461,-6.61385894214,3.78924929375,-0.00671144521512,-0.0175708427484,-0.00665150543097,0.999800969925
1704804092790630206,188.151652046,-6.71546792316,3.87179696697,-0.00795425209498,-0.016594000287,-0.00655624140403,0.999809174156
1704804092895198007,189.956213532,-6.80531597586,3.97012760724,-0.007657500597,-0.0151864498261,-0.00677504488723,0.999832402552
1704804092987795017,191.829061874,-6.84925110458,3.99573205146,-0.0078469441424,-0.0152066211425,-0.00755426496209,0.999825043306
1704804093090500518,193.670793054,-6.93100912234,4.10662259014,-0.00802792887967,-0.013742475995,-0.00794319766114,0.999841788646
1704804093191082253,195.499532714,-7.06027944469,4.23215446103,-0.00831453019998,-0.0134860962962,-0.00785620011649,0.99984362473
1704804093292912710,197.373442007,-7.1311275786,4.29402010005,-0.00885250984759,-0.014148804836,-0.00824377665549,0.999826727257
1704804093389560819,199.231358467,-7.23659500213,4.32584282223,-0.00946329184219,-0.0154064505393,-0.00832798506089,0.999801846395
1704804093492539701,201.085747845,-7.3356722482,4.36365223181,-0.00997286921497,-0.0165302553093,-0.00856008008191,0.999776983916
1704804093590363734,202.966976678,-7.41087944874,4.45283707991,-0.0102654289303,-0.0157483353658,-0.00877197480853,0.999784808526
1704804093689952544,204.776141251,-7.51803987123,4.5523178153,-0.0104659048113,-0.0147777345898,-0.0085103917493,0.999799808276
1704804093788072132,206.636115982,-7.57306895351,4.64613597188,-0.0103805009133,-0.0145909408281,-0.00911802691975,0.999798085231
1704804093892225902,208.500552036,-7.67119177678,4.69487433024,-0.00941796725168,-0.0150614972852,-0.00877229392786,0.999803730765
1704804093990390054,210.33406691,-7.75835657388,4.71468363159,-0.00884183511019,-0.0165024563158,-0.00859427360524,0.999787792158
1704804094089173527,212.19602369,-7.84575577855,4.80837452585,-0.00830245089223,-0.0165175583516,-0.00821861663237,0.999795326012
1704804094193571657,214.058868258,-7.93038959925,4.88546221855,-0.00721285145822,-0.0172854795125,-0.00780566544281,0.999794108084
1704804094302293666,215.93813053,-7.99331614145,4.91763420175,-0.00568141725078,-0.0179342939197,-0.00767101244111,0.999793597783
1704804094393537466,217.756949015,-8.03759407617,4.93718456688,-0.00456430031576,-0.0176223807131,-0.00799389240778,0.999802338737
1704804094492126604,219.619930691,-8.09208262871,4.96314508821,-0.00362847591476,-0.0174208231261,-0.00791682253414,0.999810318513
1704804094599762629,221.485264937,-8.19167867367,5.06471335024,-0.00334021362585,-0.0164062702974,-0.00737701287172,0.999832614466
1704804094695586355,223.34440641,-8.26829173431,5.14722310702,-0.00330700768366,-0.0161328387345,-0.00750144775162,0.999836248341
1704804094793594853,225.196816454,-8.35037330531,5.18422499941,-0.00315120870931,-0.0162564001738,-0.00721353200802,0.999836868841
1704804094895605525,227.035235474,-8.41861653088,5.25747719549,-0.00385489123764,-0.0161487160292,-0.00719744917091,0.99983626435
1704804094999134692,228.883284326,-8.52778823933,5.36644003258,-0.00527885491325,-0.0158790258716,-0.00687015702484,0.9998363822
1704804095100057513,230.711776076,-8.61008414471,5.43682363072,-0.00638379927802,-0.0162010368845,-0.00679247875649,0.999825302612
1704804095192332412,232.573417365,-8.67071595653,5.49260477013,-0.00688138166768,-0.0164393480506,-0.00730049296409,0.999814531413
1704804095296419679,234.445481358,-8.77114480488,5.53471812039,-0.00780494154468,-0.0167858920245,-0.00703325413894,0.9998039058
1704804095393553108,236.298119627,-8.84983807622,5.5946837139,-0.00834350334336,-0.0168834749922,-0.00739743786536,0.999795285114
1704804095487826083,238.142185215,-8.91563514607,5.63790382239,-0.0082599473902,-0.0172777228451,-0.00762416469871,0.999787540268
1704804095592255039,240.005121888,-8.98686430238,5.693377678,-0.00861988252118,-0.0178552291306,-0.00773665375592,0.99977349065
1704804095694816253,241.872038028,-9.07584743257,5.77673083136,-0.00899599972448,-0.0180611533532,-0.00789428595571,0.999765245934
1704804095793688338,243.751948139,-9.1745209781,5.81678771631,-0.00863208010609,-0.0188732963187,-0.00784721807293,0.999753823222
1704804095891787285,245.610970132,-9.25512900817,5.92865026432,-0.0087164215529,-0.0185973062138,-0.00820419559182,0.999755397771
1704804095993007151,247.474125005,-9.34850973512,5.99972051028,-0.0086328508351,-0.018625744659,-0.00823409712458,0.999755347656
1704804096089659955,249.351647422,-9.47255348584,6.07796439929,-0.00885725126806,-0.0186081823403,-0.00817280430154,0.999754214755
1704804096193664574,251.209942726,-9.50860590478,6.14194000131,-0.00893379056656,-0.0192482935567,-0.00914268853198,0.999733015273
1704804096289775289,253.07856163,-9.60117587383,6.23718299605,-0.00902854784439,-0.0198625817445,-0.00941101070547,0.999717658165
1704804096395526465,254.936818585,-9.72917069765,6.31570574129,-0.00991064525212,-0.0203081183109,-0.00939950307683,0.999700459529
1704804096487685167,256.813873153,-9.830095273,6.42338169962,-0.00967793145857,-0.0203927737447,-0.00952704323623,0.999699808877
1704804096585534510,258.668867292,-9.91280585428,6.47339349293,-0.00942215148787,-0.0210477304665,-0.00989899423666,0.999685063416
1704804096707394095,260.506282054,-9.99901912358,6.52965255445,-0.00956777156452,-0.0206977285344,-0.0102739281475,0.99968720517
1704804096799418519,262.343523003,-10.0934678439,6.65338819762,-0.00831110716054,-0.0192311289466,-0.0100592134868,0.999729914227
1704804096904761464,264.192836701,-10.198700276,6.74363942825,-0.00755256373039,-0.0193378174318,-0.0100610519614,0.999733855999
1704804096986484423,266.057802962,-10.2583160623,6.81043793647,-0.00612050154662,-0.0198217448483,-0.0106396301829,0.999728181138
1704804097100077661,267.922921944,-10.3762773587,6.91996558201,-0.00508483508271,-0.0199574896967,-0.010032256747,0.999737564005
1704804097191257660,269.81084212,-10.4861632826,7.02668645059,-0.00525038769837,-0.0198099284608,-0.00975921268839,0.999742345773
1704804097284518773,271.683224004,-10.5673077651,7.02844698755,-0.00452109758768,-0.0207672059018,-0.0100110503488,0.999723992763
1704804097385541776,273.520119665,-10.630366467,7.16582874503,-0.00398514948146,-0.01925869943,-0.010273818206,0.999753804564
1704804097488765475,275.336368049,-10.7072838641,7.25170234605,-0.00248346047545,-0.0182112673271,-0.0102232523728,0.999778809176
1704804097588771669,277.232905953,-10.7730224063,7.37506529625,-0.00344105584051,-0.0173928933105,-0.0105228791166,0.999787435114
1704804097699434324,279.067152143,-10.8687402833,7.43645031048,-0.00324474481211,-0.0181009305738,-0.0103020974809,0.999777822684
1704804097796356887,280.94484885,-10.9177430241,7.4993292037,-0.00320429438336,-0.0189140080078,-0.0106175229962,0.999759601606
1704804097887939176,282.825202559,-11.0290468042,7.60035078315,-0.00423813919095,-0.0192373138605,-0.0100288441965,0.999755663258
1704804097983997831,284.693145067,-11.1133957784,7.65514606821,-0.00493502384354,-0.0204515891759,-0.00993082306027,0.999729341769
1704804098084916801,286.5321869,-11.1994477977,7.66663688503,-0.00544936328415,-0.0212452023511,-0.00983654539663,0.99971105235
1704804098183245187,288.377112496,-11.2872901968,7.76923576494,-0.00581937905099,-0.0194565283489,-0.00963585792487,0.999747332367
1704804098282773868,290.24282564,-11.3602209934,7.84298612305,-0.00598654990797,-0.0191413294578,-0.00940949436062,0.999754585957
1704804098401691626,292.073803495,-11.4067663081,7.93565930559,-0.00610453631607,-0.0185588701988,-0.0099897498929,0.999759224949
1704804098482431550,293.948263087,-11.4864929294,8.01238447317,-0.00618251022873,-0.0194655042767,-0.0102265371922,0.999739110292
1704804098581170158,295.794721719,-11.5709770369,8.13588123811,-0.00552465104969,-0.0198775787475,-0.00997874330158,0.999737357898
1704804098684606509,297.680309362,-11.6599424332,8.21643088707,-0.00473843600869,-0.0210448532725,-0.0101168932153,0.999716114628
1704804098780582004,299.498127285,-11.7447895519,8.27956074987,-0.00344100559853,-0.0216894993489,-0.010046438752,0.999708354555
1704804098887129355,301.396171425,-11.8400209637,8.37890074116,-0.0036904191827,-0.0219846135603,-0.0101591880429,0.999699879199
1704804098980631601,303.220507479,-11.9279540336,8.42955859048,-0.0039784429319,-0.0215350005331,-0.0102947300116,0.999707174265
1704804099082561140,305.067554119,-11.9922727573,8.5186628308,-0.00334928858175,-0.0206994415454,-0.010517055822,0.999724815598
1704804099183916098,306.904391323,-12.1100221716,8.57306442795,-0.00354607426096,-0.0201721242686,-0.010654936309,0.999733456023
1704804099282703404,308.787599214,-12.2220447829,8.6473595902,-0.0035847576975,-0.0201314176823,-0.0107540603816,0.999733077236
1704804099389169189,310.643060202,-12.2965560071,8.76332697055,-0.0042144078921,-0.0197095231551,-0.0113932985302,0.99973194718
1704804099485622039,312.523131173,-12.4027988708,8.86705727684,-0.0054147126519,-0.0202927972122,-0.0115865030263,0.999712276716
1704804099582513981,314.364734274,-12.5081668859,8.92258113838,-0.0062613071859,-0.0216146579377,-0.0119893014219,0.99967487677
1704804099680001617,316.208266682,-12.5817676147,9.03179382608,-0.00714198662152,-0.0220121738514,-0.0126574984726,0.99965206145
1704804099785965551,318.091533667,-12.67949852,9.15012954727,-0.00773792384073,-0.0211190103563,-0.0133979244905,0.999657245037
1704804099884380345,319.959752862,-12.7812846121,9.21085195352,-0.00803619545622,-0.0209055940692,-0.0135299963842,0.999657598829
1704804099980965340,321.839558584,-12.9051186086,9.26101540312,-0.00801364580792,-0.0214381996901,-0.013219762278,0.999650650458
1704804100080964920,323.723479195,-13.0152954676,9.33019529217,-0.0080733446514,-0.0215095799456,-0.0129257598477,0.99965248152
1704804100186303849,325.611184204,-13.0766068021,9.41496283977,-0.0081585790768,-0.0222400393485,-0.0132960879567,0.999630948041
1704804100284723571,327.505062448,-13.2158944838,9.48019274359,-0.00680031453222,-0.0247055897896,-0.0130317978938,0.999586695489
1704804100382854512,329.327717377,-13.3016274157,9.5616927285,-0.0067247038511,-0.0261329366375,-0.0138750992334,0.999539558798
1704804100480196032,331.178588299,-13.3701449062,9.65493045161,-0.00584235553024,-0.0257885361529,-0.0144099111368,0.999546483534
1704804100581664257,333.01420191,-13.4686603445,9.67095256092,-0.00538379888213,-0.0255097944078,-0.0143671088444,0.99955682744
1704804100675654528,334.850317008,-13.5703743913,9.79144193108,-0.00491485282013,-0.022941244912,-0.0140816822515,0.99962555476
1704804100793975577,336.716339202,-13.685722641,9.85945269979,-0.00490142024869,-0.0226519656874,-0.0134841247216,0.99964045682
1704804100904098272,338.575645838,-13.7592459597,9.96746043398,-0.0041678079549,-0.0223684837239,-0.0138631684382,0.999644983418
1704804100993481567,340.424130868,-13.8878994587,10.1049813318,-0.00368661399587,-0.022810827198,-0.0133308190662,0.999644118826
1704804101094947052,342.299141598,-13.9592669938,10.1940347576,-0.00402848357431,-0.0240570375065,-0.0134545339462,0.999611927591
1704804101197398217,344.169665621,-14.0619229942,10.2308373165,-0.00395390207883,-0.0258423693229,-0.0134146315517,0.999568199908
1704804101301092876,346.012631405,-14.1286202134,10.3007284859,-0.00466846741568,-0.0263860396897,-0.0137658188798,0.999546139281
1704804101394790430,347.876651446,-14.2596070885,10.4107056755,-0.00528884817935,-0.0265581113949,-0.0136479395302,0.999540108525
1704804101508318395,349.684910556,-14.3381091143,10.4850550444,-0.00559644586268,-0.0261652780629,-0.0138350977761,0.999546221086
1704804101610154777,351.542232385,-14.4380411528,10.587457765,-0.00551749426705,-0.025913384869,-0.013721816182,0.999554783642
1704804101701923830,353.388338296,-14.5158096732,10.7417756612,-0.0054654902887,-0.0243321175225,-0.0138918646289,0.999592463242
1704804101798611332,355.267371124,-14.6237529908,10.762650342,-0.00596314736944,-0.0258852252257,-0.0137065502174,0.999553163403
1704804101892707088,357.11185103,-14.6901491657,10.8908720672,-0.00581766392025,-0.025731409818,-0.0141054463832,0.999552442705
1704804101994678249,358.972083503,-14.7548539421,11.0274189474,-0.00492873739854,-0.0260070273052,-0.0143267527896,0.999546940485
1704804102093640034,360.837544023,-14.8663591709,11.1994537707,-0.004362308761,-0.0257142544131,-0.0139495593763,0.999562482877
1704804102192006226,362.692644662,-14.9740277788,11.2732530615,-0.00420648164203,-0.0267899872188,-0.0139263922556,0.999535220838
1704804102290064081,364.531710466,-15.0735500704,11.3655073019,-0.0034598912687,-0.0275677396075,-0.0137853700712,0.999518890495
1704804102389787473,366.385239082,-15.1540158376,11.433366756,-0.00310740304623,-0.0277990460122,-0.0140960791476,0.999509308431
1704804102493579792,368.210304887,-15.2732573644,11.5707187838,-0.00388278396073,-0.0274678680944,-0.0141006356737,0.999515688864
1704804102595679002,370.063563663,-15.3505611202,11.6445324089,-0.00335781856884,-0.0272959055795,-0.0145686013236,0.999515589898
1704804102701178664,371.888054747,-15.4524525164,11.7227813446,-0.00438640081002,-0.0275739112627,-0.0151519210675,0.999495301737
1704804102794753164,373.725846831,-15.5500342613,11.8450842335,-0.00431267624625,-0.0272219518796,-0.0158702316388,0.999494122998
1704804102901226486,375.563224999,-15.6600131373,11.9774417838,-0.0056438374437,-0.0274596370771,-0.0163206620144,0.999473737235
1704804102995983113,377.367242919,-15.7686235024,12.1319249549,-0.00631552668888,-0.0264564260634,-0.0169281556282,0.999486672842
1704804103088628570,379.16651905,-15.8707539856,12.1804977405,-0.00676854876887,-0.0281830511586,-0.0177956787388,0.999421440731
1704804103191851811,381.056195682,-15.9684027347,12.295993095,-0.00664349208078,-0.0279836868554,-0.0184832386533,0.999415402709
1704804103290370224,382.906607928,-16.0440927373,12.3532510677,-0.00640326678703,-0.0285749171551,-0.0195922028232,0.999379116188
1704804103393574038,384.724074379,-16.1636790746,12.5376070715,-0.00608280806178,-0.0274582684588,-0.0202292062072,0.999399730916
1704804103481036254,386.601817693,-16.2725814753,12.5646028388,-0.00624310761126,-0.0302486034943,-0.0208944437242,0.999304492042
1704804103583387993,388.391110923,-16.3820241917,12.6999399533,-0.00619840612598,-0.0299802719659,-0.0214371177383,0.999301362472
1704804103679112478,390.288900446,-16.510021907,12.7599767519,-0.00598464364783,-0.0309284692372,-0.0218936042559,0.999263871019
1704804103784803261,392.10191729,-16.65681658,12.8838957235,-0.00602811270141,-0.0299522077026,-0.0217016142976,0.999297536797
1704804103880541041,393.919419088,-16.7815509163,12.9986082657,-0.00531448092285,-0.0291722752756,-0.0217441529006,0.999323734564
1704804103986296046,395.768633992,-16.9253591438,13.1527240293,-0.00444782797631,-0.0278420926105,-0.0214357820932,0.999372574144
1704804104078867078,397.632629596,-17.051577234,13.2095787817,-0.00298326635742,-0.0291100287161,-0.0211015247674,0.999349004103
1704804104177204541,399.465064083,-17.1945448012,13.2886319499,-0.00288255305325,-0.0308374895232,-0.0208252138799,0.99930328259
1704804104278033931,401.363931656,-17.3184032841,13.4827243076,-0.00297948082632,-0.0313631142248,-0.0206883514989,0.999289482519
1704804104378690242,403.225265624,-17.4377296768,13.6282640134,-0.00316388738408,-0.0325996597766,-0.0208073789218,0.999246868888
1704804104479827578,405.08273582,-17.601669805,13.7381648143,-0.00387684240987,-0.0323964041151,-0.0203945737213,0.999259478042
1704804104580779846,406.903534953,-17.7060582306,13.8578117331,-0.00303803153802,-0.0321421131367,-0.019961541089,0.999279336224
1704804104676450705,408.758837094,-17.800606581,13.9021658833,-0.00371089126123,-0.0322957758787,-0.0204534985441,0.999262161069
1704804104780013168,410.579727059,-17.9128606751,14.0735059162,-0.00326968865498,-0.0296223880091,-0.0196891898401,0.999361875933
1704804104880741176,412.382333611,-17.9932332767,14.1921176357,-0.00223972396424,-0.0288324332236,-0.0200812592327,0.99938001654
1704804104981428597,414.172001764,-18.1021311675,14.2471337998,-0.00243967233299,-0.0296592654818,-0.0197166696733,0.999362611321
1704804105075677385,416.027794666,-18.2137098692,14.4197527284,-0.00172042555072,-0.0294805585184,-0.0194832852939,0.999373973245
1704804105176302333,417.854943734,-18.3293220301,14.5286206959,-0.00181546019032,-0.0307839620645,-0.0188357240482,0.999346920385
1704804105277674500,419.747362966,-18.4268782537,14.6135254511,-0.00109274847602,-0.0332698167306,-0.0191888653975,0.999261583691
1704804105379715069,421.502304282,-18.4995123988,14.8264253124,-0.00109275662502,-0.0322402190468,-0.0193255618385,0.999292698271
1704804105483014890,423.393212999,-18.6447097269,14.9450474518,-0.00138237259263,-0.0325301997165,-0.0186543729188,0.99929569674
1704804105578631406,425.288284333,-18.7929434081,15.075650584,-0.00168352562513,-0.0315119229603,-0.0182706385093,0.999334952967
1704804105679305968,427.052617954,-18.8651404743,15.1813472229,-0.00168171941579,-0.0302519828923,-0.018621508037,0.999367414312
1704804105780636464,428.92118574,-18.9782836752,15.2939651966,-0.00287958883681,-0.0298034592172,-0.0188868963018,0.999373177014
1704804105882447165,430.751112776,-19.1094347518,15.4182635925,-0.00331143989079,-0.0295855434451,-0.0186245161688,0.999383238494
1704804106098217855,432.642962735,-19.2371114073,15.5541252658,-0.0039438387017,-0.0303538930383,-0.0184408046347,0.999361308055
1704804106128638763,434.453500346,-19.311845274,15.6732295702,-0.00429470428312,-0.0319265712359,-0.0191289179028,0.999297920574
1704804106188096129,436.327694633,-19.3938872305,15.8388400786,-0.00473533522991,-0.0324270750581,-0.0199468868755,0.999263820574
1704804106188096129,438.155589173,-19.4866770213,15.959730727,-0.00499547270647,-0.0332582143552,-0.0203627814825,0.999226847898
1704804106188096129,440.035411045,-19.6307717798,16.0194343818,-0.00590236824346,-0.0345806503049,-0.0201059938216,0.999182210453
1704804106188096129,441.87054859,-19.7351331183,16.0743150609,-0.00584468313647,-0.0349753694043,-0.0204748187362,0.999161320815
1704804107606944690,443.733315622,-19.8797491739,16.2277722581,-0.00656905164992,-0.0338313092223,-0.0200076057605,0.99920567742
1704804107642964759,445.583064883,-20.0317487278,16.3796636818,-0.00566909860444,-0.0329969411071,-0.0198571471802,0.999242091239
1704804107670894311,447.391304295,-20.1105532765,16.5102716163,-0.0054425054983,-0.0329996043548,-0.0201348636954,0.999237705709
1704804107697462610,449.264722935,-20.2277306,16.6396138419,-0.00518695237859,-0.033142862527,-0.020342996808,0.999230107968
1704804107728021628,451.110399906,-20.3704711285,16.8204230968,-0.00473831080173,-0.0329010222232,-0.020231575051,0.999242590425
1704804107758995664,452.941870773,-20.4899166842,16.9474416486,-0.00387879618872,-0.0331289520074,-0.0202581192664,0.999238227893
1704804107794728335,454.781494308,-20.6090341155,17.1128682847,-0.0035823650287,-0.0335574795655,-0.0202364361369,0.999225474494
1704804107820171724,456.650700553,-20.7468132825,17.197437541,-0.00373508910582,-0.0349250348519,-0.0204342873901,0.999174024357
1704804107850918977,458.490975828,-20.8560604942,17.3284760645,-0.0043809877825,-0.0351675681008,-0.0205138250484,0.999161264302
1704804107887022376,460.356661406,-20.9599131809,17.4368774642,-0.00492112104107,-0.0351113073337,-0.0210176411274,0.999150257682
1704804107911547135,462.201711529,-21.0891104488,17.5683318707,-0.00491406044724,-0.0343165567876,-0.0208231156002,0.999181977318
1704804107942344463,464.043251922,-21.1938940768,17.6961683257,-0.00514826339877,-0.033802315656,-0.0211068597148,0.999192373526
1704804107974561371,465.889304109,-21.3332194061,17.8136309917,-0.00479252693609,-0.0335489521356,-0.0207773876548,0.999209587453
1704804108006549080,467.741553675,-21.4333511214,17.9704243159,-0.00412763056547,-0.0331340180916,-0.0211780026698,0.999217990087
1704804108036795582,469.619626942,-21.5611731713,18.1291272341,-0.00415365345446,-0.0330936353942,-0.0210822911361,0.9992212445
1704804108105464241,471.451301673,-21.662480399,18.2395655567,-0.00334105735088,-0.0341805376632,-0.0216183349746,0.999176248604
1704804108204410503,473.282392738,-21.8198252812,18.4194760838,-0.00341909289178,-0.0347061212024,-0.0211694340006,0.999167478463
1704804108302244206,475.133444837,-21.9301486595,18.5463868394,-0.00281064325475,-0.0358169372394,-0.0213305915453,0.999126745291
1704804108405584577,476.987554866,-22.0262152549,18.6848554312,-0.00291903551979,-0.0363319435671,-0.0216161107726,0.999101702963
1704804108502520756,478.846608602,-22.1471531467,18.816877769,-0.00231167956646,-0.0366314097209,-0.0215851443568,0.999093027452
1704804108603870469,480.697469112,-22.2687053342,18.9425300136,-0.00142617094339,-0.0363891578325,-0.0214687444728,0.999106044542
1704804108696558036,482.553822464,-22.4019015781,19.0573263515,-0.00109480305323,-0.036467004809,-0.0212609682997,0.999108067325
1704804108801276554,484.383227389,-22.5068440892,19.2092285615,-0.000722858647123,-0.0358694103574,-0.021325911476,0.999128654566
1704804108900740685,486.243687385,-22.6553198145,19.3377143002,-0.000692977833838,-0.0357962078742,-0.0210520802266,0.99913710831
1704804109007746557,488.082559072,-22.7580462669,19.4844144935,-0.00101529802172,-0.0357830331316,-0.0213320424327,0.999131366576
1704804109108473185,489.940898283,-22.8672805457,19.6515511851,-0.00109871191928,-0.03593898095,-0.0215388906812,0.999121243228
1704804109211086617,491.822850862,-22.9592843899,19.8213652691,-0.0014040350578,-0.0359708704718,-0.0219242779225,0.999111330734
1704804109308101913,493.6683121,-23.100979798,19.9715244915,-0.00259138892175,-0.0368392638869,-0.021929119641,0.999077207753
1704804109406642892,495.454364386,-23.2799128915,20.1302959903,-0.00293684089471,-0.0364335709666,-0.0209013354993,0.99911315878
1704804109511305729,497.283699209,-23.4117855874,20.2507961004,-0.0032556267955,-0.0364631959438,-0.0205418093902,0.999118546671
1704804109620439739,499.147834801,-23.5302672614,20.3929049821,-0.00268360792454,-0.0364179648336,-0.020567077107,0.999121376723
1704804109725156977,500.983010566,-23.6231427401,20.517007448,-0.00317540160832,-0.0355592313233,-0.021022941729,0.999141378291
1704804109801903049,502.847704254,-23.7619898661,20.6649068522,-0.00315253498997,-0.0354164661519,-0.0207469617362,0.999152290208
1704804109893203385,504.684881176,-23.8599272645,20.8151695781,-0.00273534092187,-0.0352427156108,-0.0211275567581,0.999151687809
1704804109992254970,506.533457873,-23.9743265318,20.9634771078,-0.00314750401532,-0.035387456526,-0.0213371481045,0.999140904602
1704804110098937557,508.375256024,-24.0819358092,21.1075293662,-0.0028011877538,-0.0360193630383,-0.0216809928901,0.999111952376
1704804110197636219,510.220254084,-24.1941207912,21.2980063791,-0.00287717351535,-0.0367320952969,-0.0219092812741,0.999080806763
1704804110297087207,512.111275507,-24.3112650298,21.4473500582,-0.00287830397323,-0.0373070701341,-0.0227113244068,0.999041587537
1704804110394768302,513.95982824,-24.418748277,21.5726277014,-0.00328169290305,-0.0379534375558,-0.0249640570461,0.998962242993
1704804110500390898,515.808790079,-24.5412853668,21.6854290973,-0.00350344568607,-0.0377190938297,-0.0260459021981,0.998942744509
1704804110596877550,517.676849586,-24.6676414899,21.8446582261,-0.00387177975595,-0.0375359889117,-0.0261583284628,0.998945344206
1704804110704815399,519.554391756,-24.7812159278,21.8951244172,-0.00367433157433,-0.0407473893814,-0.0265835913572,0.998809021894
1704804110806276571,521.398978042,-24.9122564182,22.1188004435,-0.00329494895382,-0.0406877753554,-0.0269006617213,0.998804286458
1704804110907499006,523.251312111,-25.0693271479,22.3773823945,-0.00324569234888,-0.0414561645677,-0.0268277684307,0.998774810827
1704804111011810920,525.104528179,-25.2054599215,22.5592331456,-0.00353578427468,-0.0421693897793,-0.0272355705721,0.998732929512
1704804111110866804,526.930180302,-25.3375504048,22.7501057841,-0.00391033629747,-0.0422505095332,-0.0274225348589,0.998722988769
1704804111212308326,528.804038512,-25.4786751116,22.9108492778,-0.00395407405175,-0.0424653772703,-0.027285607669,0.998717453861
1704804111302335511,530.643107476,-25.6349901017,23.0170160953,-0.00419342842536,-0.0427385448906,-0.027224733078,0.998706486335
1704804111399982756,532.512161565,-25.7516798986,23.1826988929,-0.00348068298135,-0.0425769479932,-0.0275962965831,0.99870592907
1704804111496820980,534.344003298,-25.891713005,23.3889734705,-0.00349601277768,-0.0420369894111,-0.0274421539673,0.998732996151
1704804111605151858,536.188241398,-26.0374935462,23.5854201774,-0.00277614687921,-0.0419925981596,-0.0273418944349,0.998739873799
1704804111717261191,538.073764776,-26.1722030076,23.8381359138,-0.00324451391131,-0.0421167208046,-0.0271911644842,0.998737350624
1704804111819056987,539.89578309,-26.2516547879,23.9463828845,-0.00245110176124,-0.0440132960228,-0.0276424525138,0.998645440931
1704804111927751377,541.765241516,-26.3878226467,24.0683156178,-0.000937295748453,-0.0449390711111,-0.0272595691552,0.998617302701
1704804112024631703,543.650517922,-26.5151057023,24.2354734193,-0.00064137832071,-0.0448373313895,-0.0271078167074,0.998626240703
1704804112107000224,545.495331382,-26.6513928415,24.3645601326,-0.000165556716048,-0.0447569225213,-0.0268407850882,0.998637252827
1704804112203977814,547.353107106,-26.7910013324,24.5450241581,-0.000159271777775,-0.0444359970829,-0.0264881895056,0.998660999846
1704804112301862307,549.186101075,-26.8876206777,24.7172518067,-0.000377861686086,-0.0443028848928,-0.0267940592272,0.998658695451
1704804112410180371,551.005819262,-27.0120036302,24.9079157771,-0.00112028078131,-0.0436715392595,-0.0263292593102,0.998698308667
1704804112511745557,552.853073605,-27.1785579669,25.0534866382,-0.00181651070842,-0.0440280361689,-0.0259372768938,0.998691889417
1704804112605620852,554.665789047,-27.2982833121,25.1842621262,-0.00240112576474,-0.0441222867255,-0.0258381382832,0.998689065235
1704804112703507626,556.540912823,-27.4508015607,25.3577993466,-0.00363773538588,-0.043757262865,-0.0256172081351,0.998707077914
1704804112802244988,558.389845131,-27.5576571807,25.5693004892,-0.0034378797346,-0.0429997550961,-0.0259084017512,0.99873317596
1704804112889909994,560.251446486,-27.6576330781,25.7424488391,-0.00422752469977,-0.0439539389623,-0.0265476434717,0.998671818923
1704804112994250376,562.090975694,-27.7707860388,25.9328113316,-0.00441123091959,-0.0451379034612,-0.0272024161264,0.998600590461
1704804113095160905,563.930352771,-27.936168588,26.1233816414,-0.00516096735843,-0.0458768810106,-0.0269682699906,0.998569671389
1704804113196428738,565.805784482,-28.0691106202,26.2833734898,-0.00564425077682,-0.0466285632043,-0.0274917776885,0.998517962626
1704804113282002415,567.632062313,-28.1854622657,26.4342552891,-0.00640284230885,-0.0466779618868,-0.0280334903156,0.998496016469
1704804113393844537,569.485478601,-28.339248218,26.581397632,-0.0063763666524,-0.0466372889792,-0.0276006627525,0.998510144486
1704804113492609284,571.301475047,-28.4584143339,26.7694046139,-0.0063356999566,-0.0459273444949,-0.0275924169318,0.998543537589
1704804113592404880,573.17306038,-28.5971470481,26.9497165436,-0.00542591351209,-0.0459455760022,-0.0274880029296,0.998550936709
1704804113694557838,574.999934079,-28.7381675013,27.1703008569,-0.0048243606781,-0.0458385263513,-0.027477031269,0.998559246013
1704804113800765436,576.867889371,-28.8685149839,27.3065856818,-0.00374938592527,-0.0473370503821,-0.0271775129039,0.998502142491
1704804113907474650,578.701261661,-28.9822696296,27.5551758128,-0.00217081895337,-0.0470147827298,-0.0272257055404,0.998520735242
1704804114001276424,580.548138773,-29.1340950922,27.7073166819,-0.00146200651723,-0.0478371525031,-0.027133342491,0.998485478664
1704804114092507286,582.403994059,-29.2405003336,27.8919414808,-0.00100532390117,-0.0478525547907,-0.0271500178214,0.998484851591
1704804114189365528,584.231534943,-29.3899581215,28.0747423968,-0.000264090278084,-0.0480107886622,-0.0270244921856,0.998481132145
1704804114301857923,586.105335899,-29.4872668576,28.2127943051,0.000278180634329,-0.0489870356795,-0.0274528675185,0.9984220215
1704804114406930587,587.979508398,-29.6211446274,28.4154987898,0.000367067807353,-0.0487248567245,-0.0274691039715,0.998434375372
1704804114499927719,589.778635465,-29.7489748402,28.6356392841,0.000373450381457,-0.0478732191417,-0.0272604941053,0.998481287198
1704804114591217578,591.627544958,-29.9412518326,28.77682247,0.000406509998345,-0.0488209725997,-0.0263228684667,0.998460542024
1704804114692141354,593.443592008,-30.0343675537,28.9999101168,0.000289440785529,-0.0483003367592,-0.026981983261,0.998468310099
1704804114789558674,595.319827795,-30.1508500496,29.1801794605,0.000163230810286,-0.0489222119843,-0.0268935889605,0.998440446598
1704804114887908844,597.132990787,-30.3034455035,29.3571520839,0.000358857989574,-0.0498216140372,-0.0262884228355,0.998412037598
1704804114988992322,599.010663168,-30.4406458897,29.5443210858,3.00750310927e-05,-0.0503876241354,-0.0260780248118,0.99838921421
1704804115082321567,600.847222065,-30.5776747607,29.7577258884,0.000684554691003,-0.0500368147122,-0.0258432725887,0.998412727193
1704804115184091187,602.715357078,-30.7156934098,29.9102477318,0.000994170308996,-0.050950315866,-0.0253142781742,0.998379819637
1704804115286570422,604.52925618,-30.8407775012,30.094636713,0.00124796176758,-0.0503360205708,-0.0256493827403,0.998402141819
1704804115389263973,606.371860223,-30.9298066517,30.2681871403,0.00190840012497,-0.0502633630998,-0.025695696598,0.998403567459
1704804115487401360,608.250750561,-31.075165115,30.4775242195,0.00138981111044,-0.0500624979395,-0.0254170040488,0.99842164972
1704804115590423673,610.075208239,-31.1822472169,30.6506476281,0.00242517075832,-0.0508163006557,-0.0257976026095,0.998371827444
1704804115689136760,611.904259009,-31.3406455537,30.8998849781,0.00249997037665,-0.0502322031413,-0.0251546333941,0.998417608185
1704804115782947246,613.718884875,-31.4212158654,31.103073013,0.00319663699212,-0.050325497993,-0.0261501936797,0.998385343009
1704804115888807839,615.51140602,-31.5620220401,31.2506318067,0.00262575162101,-0.0509047593632,-0.025975259077,0.998362207227
1704804115982175442,617.298692488,-31.6999613901,31.4506680725,0.00295295054285,-0.0502392793522,-0.0259549750765,0.998395529919
1704804116083323986,619.141555389,-31.8194479994,31.6639319815,0.00336009428586,-0.0489320481278,-0.0260350768346,0.998457079301
1704804116184666169,620.996972106,-31.9415179462,31.7623678723,0.00351895324663,-0.0501314591236,-0.0265519523718,0.99838341713
1704804116286887418,622.806156696,-32.0700267343,31.9583669569,0.00325346863638,-0.0498942343892,-0.0272495665132,0.998377404312
1704804116387663404,624.697103075,-32.2148641333,32.1565683828,0.00322559345186,-0.0491964049024,-0.0272139829536,0.998413095078
1704804116494022783,626.491930482,-32.3241230838,32.3731035079,0.00308254559497,-0.049315184393,-0.0282672189461,0.99837842266
1704804116597580918,628.34852592,-32.4585504875,32.5445780127,0.00278459030427,-0.0505530148323,-0.0290966179886,0.998293556811
1704804116683231302,630.191117478,-32.6057849487,32.7062446538,0.00269819781249,-0.052297311805,-0.0298785812989,0.998180835964
1704804116781820978,631.993046897,-32.747088249,32.9475588138,0.00266266300717,-0.052127151276,-0.030319628369,0.998176532714
1704804116885131813,633.822649561,-32.9583827185,33.1347019568,0.00186708903681,-0.0532561406406,-0.0295009163901,0.99814327298
1704804116987614495,635.641427367,-33.0891161036,33.3809481836,0.00157235853899,-0.0526797503466,-0.0297572853003,0.998166757393
1704804117086734292,637.506824623,-33.2213567847,33.5250465834,0.00229264736259,-0.0541701752584,-0.0301210138504,0.998074676768
1704804117182579002,639.281072428,-33.3827507996,33.7263637357,0.00226680201675,-0.0534969038841,-0.029551460752,0.998128074974
1704804117279893046,641.142929771,-33.5195633899,33.9196485697,0.00365534762039,-0.0531363365848,-0.0291189387374,0.998155927486
1704804117385883262,642.957865574,-33.6416811981,34.1008155025,0.00422233146002,-0.0528740390777,-0.0291018943268,0.998168115928
1704804117487043917,644.804233663,-33.7766689143,34.2816832083,0.00505261490734,-0.0537483467305,-0.0288925410837,0.998123643331
1704804117582858849,646.610094108,-33.9319841119,34.5138676415,0.00555276991506,-0.0541144975804,-0.0281225463882,0.998123193941
1704804117684202728,648.48808435,-34.0466578,34.7184807227,0.00548536202412,-0.0546203866266,-0.0282242378041,0.998093140227
1704804117787451868,650.260992587,-34.2027047262,34.9414683567,0.00648966335067,-0.055028754308,-0.0275641885739,0.998083130795
1704804117883974257,652.103418129,-34.3120290707,35.1572114509,0.00757455115333,-0.0557755850013,-0.0278188202356,0.998026965334
1704804117981564292,653.910493509,-34.4579156886,35.3898142073,0.00747830573444,-0.0551415546046,-0.0269446649802,0.998086904497
1704804118082465378,655.727834202,-34.5803899688,35.5451668633,0.00756480647045,-0.0553121782606,-0.0264357310151,0.998090421137
1704804118183315775,657.537913375,-34.6818379383,35.6995665575,0.00827782209375,-0.0551988839398,-0.0261992090201,0.998097270971
1704804118290483004,659.366952261,-34.816732389,35.9162586366,0.00937608463031,-0.0546475410607,-0.0251696488738,0.998144390391
1704804118386356049,661.194429798,-34.9486215821,36.1435263661,0.00960655522642,-0.0552434150508,-0.024588943852,0.998123871586
1704804118482587785,663.026268779,-35.0411185338,36.3666028798,0.00937170001435,-0.0561635503623,-0.0240867057796,0.998086998941
1704804118578790112,664.832069543,-35.1858298857,36.5487070157,0.00932139547402,-0.0572584594893,-0.0228461591989,0.998054424074
1704804118684595450,666.670485706,-35.280445703,36.7123749386,0.00880520474585,-0.058646950842,-0.0220547466233,0.997996288409
1704804118780253525,668.453689465,-35.3858884653,36.9422534066,0.00858670271109,-0.0577429944459,-0.0209159212806,0.998075417674
1704804118881156280,670.278001936,-35.4689227993,37.0449611048,0.00710256830032,-0.0590216628967,-0.0202910231942,0.998025185659
1704804118982036781,672.097552587,-35.5937244436,37.276905867,0.0068587835875,-0.0570834842321,-0.0189413947981,0.99816614673
1704804119082658585,673.912442632,-35.6464239535,37.5117298208,0.00612520575475,-0.0563332213892,-0.0182442381523,0.998226526294
1704804119178548659,675.726319138,-35.7408120415,37.738716244,0.00555113893389,-0.0566626420475,-0.0168946536816,0.998234992639
1704804119280993886,677.540830081,-35.7998658316,37.9761551163,0.00539137771941,-0.0571632868427,-0.0162296700865,0.998218357621
1704804119382000559,679.357548526,-35.8639107074,38.2366771035,0.00445116616293,-0.0578032292481,-0.0151704503946,0.998202800659
1704804119482893204,681.166252768,-35.9346921781,38.4366278909,0.00298702894528,-0.0588898438792,-0.0144022223832,0.998156120022
1704804119580479091,683.004962526,-36.018234071,38.6063073416,0.00234542183773,-0.0596578647217,-0.0134892001191,0.99812498198
1704804119681242391,684.792286214,-36.0607460129,38.8068846191,0.00152633551785,-0.0583067906796,-0.0128296767148,0.998215100996
1704804119782113933,686.629278275,-36.1262292536,38.9956754579,0.00045774952476,-0.0567744771524,-0.0122065193521,0.998312300883
1704804119882808066,688.452841705,-36.2046758197,39.2349386261,0.000345590416941,-0.0558964281253,-0.0114504241595,0.998370851776
1704804119979406379,690.274011664,-36.228861982,39.4704108515,0.000800887338866,-0.0564409266385,-0.0113156488327,0.998341492913
1704804120079240117,692.109186531,-36.2936121905,39.7064352059,0.000853499728306,-0.0581016846848,-0.0110960200359,0.998248638423
1704804120179913116,693.938796208,-36.3429972522,39.9084922705,0.000236242020474,-0.0600874415061,-0.0110717478007,0.998131684681
1704804120282455193,695.755403508,-36.4235543318,40.1340898364,-0.000147782368402,-0.0615559334244,-0.0105598670677,0.998047761597
1704804120383039049,697.530694805,-36.4923204037,40.3607751858,-0.000974954873739,-0.062170579563,-0.0105922026135,0.998008854542
1704804120479271093,699.344967178,-36.5336625969,40.5962940689,-0.00139527828854,-0.0605290361402,-0.01096267733,0.998105259323
1704804120576769089,701.140994596,-36.6051621327,40.7634544897,-0.00180226328361,-0.0596134304855,-0.0108317351331,0.998161141433
1704804120682516731,702.967173119,-36.65659897,40.9989972673,-0.00180922368536,-0.058509312674,-0.0114076947451,0.998220041644
1704804120779571576,704.786881808,-36.7299188552,41.264436052,-0.00139093252287,-0.0578151778746,-0.0114335570633,0.998260859839
1704804120882879781,706.621515276,-36.7556683882,41.5088719032,-0.00100073414136,-0.0583719416179,-0.0125004697453,0.998216135523
1704804120978613213,708.447606547,-36.8326370749,41.7146319636,-0.0020135568493,-0.0591370625897,-0.0127930412,0.998165863729
1704804121082790614,710.220323169,-36.8861334684,41.9082393247,-0.00209362432688,-0.0603183090454,-0.013464452012,0.998086182082
1704804121178932214,712.04450988,-36.9623339248,42.0888432799,-0.00185716329714,-0.0615583954797,-0.0134251832228,0.998011462532
1704804121280610970,713.855693433,-37.0334815589,42.3472394495,-0.00192685269865,-0.0601826876779,-0.0136742940765,0.998091851998
1704804121382485096,715.668028439,-37.089471463,42.5497260177,-0.00161043739535,-0.0598369029764,-0.0139364385701,0.998109576757
1704804121483165191,717.464790112,-37.1700815861,42.7611767704,-0.00059552395781,-0.0594967798166,-0.0138001598901,0.998132924079
1704804121579771482,719.268985155,-37.255114972,42.996028471,9.75562487848e-05,-0.059240552534,-0.013557278071,0.998151665645
1704804121677950488,721.115386933,-37.3313021031,43.2143786267,0.00117691297646,-0.0602138139554,-0.0135109987091,0.99809336457
1704804121780388421,722.931042762,-37.4220744869,43.4624334016,0.00162863176246,-0.0605749939106,-0.0132643184857,0.998074183378
1704804121898127940,724.740226848,-37.5218366848,43.7280787627,0.00173854065074,-0.0605495435784,-0.0129595791307,0.998079545706
1704804121988872824,726.553504387,-37.5813469068,43.9079518732,0.00148168225881,-0.0621229057561,-0.012822969702,0.997985030272
1704804122081059640,728.37482046,-37.6558541222,44.1185190539,0.00101811679349,-0.0629523909538,-0.0130435736649,0.997930771696
1704804122178478682,730.136001731,-37.6788214808,44.367168742,-0.000512860094251,-0.0623295722646,-0.0135780593641,0.997963124419
1704804122281710266,731.901883836,-37.8221239158,44.581626341,-0.000792839881424,-0.0627237407945,-0.0122742727673,0.997955132245
1704804122460168496,733.719096625,-37.8710608462,44.830581057,-0.00224989392578,-0.0624379572899,-0.0128807554203,0.997963188503
1704804122485335906,735.571867516,-37.9342123962,45.0608481444,-0.00237150065197,-0.0626020014463,-0.0128988164856,0.997952396627
1704804122535868542,737.402540632,-38.0108301236,45.2776544754,-0.00344266179108,-0.0631331763252,-0.0132701953168,0.997910943944
1704804122535868542,739.172540174,-38.0875055227,45.4693016994,-0.00509706671625,-0.0632769812783,-0.0133090145666,0.997894239728
1704804123848611978,741.073351932,-38.15317982,45.6740749412,-0.00603643511893,-0.0633195458712,-0.0139902027012,0.997876981792
1704804123868756939,742.860180566,-38.2368446818,45.9252709314,-0.0067881571703,-0.063024511144,-0.0140591168116,0.997889860231
1704804123888954965,744.6103345,-38.3163991477,46.1123108602,-0.00661279378647,-0.0644004655236,-0.0141267271438,0.997802228189
1704804123909181037,746.39659244,-38.3942542408,46.3512825054,-0.0066274838715,-0.0649493070603,-0.014163523075,0.99776603399
1704804123929303333,748.296207615,-38.5014662648,46.5389169416,-0.00646465742751,-0.0662907458544,-0.0138664005114,0.997683049949
1704804123949484145,750.071416414,-38.5807110645,46.7767930671,-0.00605654559171,-0.0659764301765,-0.01384063241,0.997706803531
1704804123972009776,751.88454754,-38.6486877716,47.0016565794,-0.00511668311485,-0.0661527172789,-0.0141562908774,0.997695964199
1704804123992180734,753.682758667,-38.6998424593,47.2689147719,-0.0036063248584,-0.0649344271767,-0.0149816493556,0.997770547155
1704804124012321621,755.541620634,-38.7886519081,47.4378412946,-0.00302723278089,-0.0660854824968,-0.015172838813,0.99769400611
1704804124037505526,757.292906476,-38.9243103951,47.6664271098,-0.00252783226853,-0.06682243051,-0.0143660521422,0.997658252805
1704804124052665187,759.074213902,-38.9853357363,47.9144039898,-0.00178346031591,-0.0677664524546,-0.0153139602529,0.997582081742
1704804124072835660,760.907156597,-39.0867624862,48.1654967118,-0.00130597510055,-0.0692435960023,-0.0150989517343,0.997484656773
1704804124093013906,762.714161656,-39.1382324045,48.4814077147,0.000843709918876,-0.0691935967843,-0.0157118770679,0.997479158297
1704804124113121078,764.532834375,-39.2383146022,48.6628083806,-0.000409680770024,-0.0705337679799,-0.0157947763781,0.997384251317
1704804124184731582,766.365574379,-39.334676274,48.9360542887,0.000957779410032,-0.069918226769,-0.0156208195358,0.997429954544
1704804124285774428,768.177444995,-39.440900104,49.1553058607,0.00103884495898,-0.0695063158689,-0.0154524589236,0.997461284647
1704804124381594137,770.025907994,-39.5421309782,49.4531146065,0.000698704958634,-0.0680284657947,-0.0156236794514,0.997560795287
1704804124482378836,771.7934243,-39.5967612145,49.6934345937,0.000401405002881,-0.0682658580582,-0.0163968002647,0.99753233353
1704804124583377284,773.66979969,-39.7161382979,49.9934000399,-0.000961271307579,-0.0678875534349,-0.0166820206071,0.997553039309
1704804124686901528,775.544383002,-39.8440278021,50.2658220903,-0.000988696919563,-0.0691645244933,-0.0171765433436,0.997456895003
1704804124786001307,777.358212873,-39.9513361725,50.5624299284,-0.00207362587328,-0.0693943540607,-0.0178598819926,0.997427264674
1704804124881912022,779.099921248,-40.0210620564,50.7853548475,-0.00274955194669,-0.0710814904715,-0.0192353678887,0.997281235309
1704804124982733847,780.869718894,-40.0959421375,51.0645213434,-0.00370747922373,-0.071100002365,-0.02085468627,0.997244266126
1704804125083732782,782.708534655,-40.2305455984,51.2949394516,-0.00509342435045,-0.0713073307482,-0.021684218947,0.997205653944
1704804125186516880,784.500632493,-40.3381719359,51.5009889456,-0.00591063414227,-0.0719771786639,-0.0229594590356,0.997124472369
1704804125284029776,786.296627008,-40.4561750177,51.771439059,-0.00562301873555,-0.0714179986387,-0.0242557430605,0.997135652787
1704804125382230168,788.081938609,-40.5673454655,52.0166830573,-0.00559033460653,-0.0715855771859,-0.0258925158654,0.997082660024
1704804125483276805,789.857252292,-40.7141097506,52.2636468121,-0.00440178579974,-0.0721868840459,-0.0268542225732,0.997019823666
1704804125574410779,791.662652895,-40.8328001408,52.5326492658,-0.00318948238119,-0.0722945745446,-0.0284824787167,0.996971448989
1704804125683311611,793.447308637,-40.9731280541,52.7616951707,-0.00327976926136,-0.0734829155761,-0.0298261204942,0.996844976297
1704804125779082947,795.240434702,-41.1277966931,53.0733957569,-0.000999074127036,-0.0733380114941,-0.0307851068403,0.996831387506
1704804125877129339,797.017727304,-41.2784635108,53.2942921361,-0.000921387809457,-0.0741980425854,-0.0318116850188,0.996735580893
1704804125972851922,798.799545496,-41.4272942603,53.5424769711,0.000277464534846,-0.0745969063141,-0.0328723681587,0.996671777464
1704804126073544390,800.562611632,-41.5736637836,53.8335207875,0.00132171022508,-0.0740143971761,-0.0337267859933,0.996685821109
1704804126174581634,802.352317028,-41.7476211971,54.0710154353,0.001565071296,-0.0751689449465,-0.0344746340764,0.99657346938
1704804126275201404,804.155009223,-41.9112929298,54.3372155164,0.00185997168262,-0.0749593504098,-0.035100599479,0.996566899013
1704804126375837692,805.90767392,-42.0630131407,54.6306197206,0.00226317690913,-0.0750531260829,-0.0356926747136,0.996537976831
1704804126477266247,807.69702179,-42.2204047034,54.8777030557,0.00314199295046,-0.0757638572137,-0.0361845733841,0.996464069834
1704804126578017287,809.468521532,-42.3867465393,55.1491020631,0.00390286004493,-0.0756842601876,-0.0364083598128,0.996459277532
1704804126675475906,811.214743306,-42.5575655001,55.4063762584,0.00427720833859,-0.076305428634,-0.0366829942646,0.996400293548
1704804126776089428,813.059601198,-42.7640679761,55.6490584761,0.00446091361007,-0.0765914621179,-0.0362579994502,0.996393097957
1704804126882120018,814.810832076,-42.9057842738,55.9458089584,0.00491392487392,-0.0756090018382,-0.0366372663294,0.996452127751
1704804126979227731,816.586518651,-43.0559413483,56.2686206251,0.00698534999263,-0.0741732071173,-0.0366115234435,0.996548612253
1704804127085903461,818.369103609,-43.2147922966,56.5099360111,0.00783968772193,-0.074600815968,-0.036476327043,0.996515295978
1704804127176712461,820.14955792,-43.3633113569,56.8375464035,0.00924689448746,-0.0748254094094,-0.0364114262396,0.996488766163
1704804127277497325,821.914142884,-43.5317494184,57.1047413912,0.00905662951532,-0.0760613887971,-0.0358616513407,0.99641687288
1704804127378500152,823.694285222,-43.6725887433,57.4315750551,0.0104422701622,-0.0778451803518,-0.0357308367659,0.996270241548
1704804127475826337,825.466364111,-43.8134807668,57.8003669069,0.0121353054347,-0.0777076017244,-0.0355605586073,0.996267890513
1704804127572221353,827.219431401,-43.9955611757,57.9543955596,0.0101279437792,-0.0784374555124,-0.035086403791,0.996249935808
1704804127673627811,828.976608748,-44.1393116531,58.1465766519,0.00938247948439,-0.0786754146185,-0.034567928954,0.996256596717
1704804127774729783,830.773759392,-44.3114849552,58.3803402098,0.00949695854882,-0.0773706069569,-0.0338836775284,0.996381198816
1704804127875652879,832.533982607,-44.447253283,58.7236149688,0.0106259506106,-0.0749496834799,-0.0335800564671,0.996565107721
1704804127976105259,834.305019806,-44.5656494523,59.0574295175,0.0107642853035,-0.0739559463478,-0.033612910209,0.996636754504
1704804128072953902,836.073052766,-44.7208107326,59.329049221,0.0109569008233,-0.0745250599372,-0.0331899013656,0.996606437975
1704804128179753643,837.870308171,-44.884046267,59.6036673806,0.0107179637823,-0.0759852149265,-0.0326751009316,0.996515785196
1704804128276032945,839.642779025,-45.0164504586,59.940565404,0.0114676447135,-0.0771885169608,-0.0326178372689,0.996416831786
1704804128373633081,841.397962457,-45.1523027645,60.2299903696,0.0120261066267,-0.0784128730994,-0.0326204120407,0.996314560172
1704804128474441719,843.193056956,-45.3082922702,60.4163329907,0.0102848019378,-0.0790917926153,-0.0325310116475,0.996283315363
1704804128576073821,844.958249508,-45.441020663,60.7155386597,0.010436513476,-0.078012365925,-0.03265769246,0.996362697552
1704804128672582203,846.747683841,-45.6137147363,60.9678348827,0.0101124439201,-0.0774423292307,-0.0326692808408,0.996410127513
